City,Cloudiness,Country,Date,Humidity,Lat,Lng,Max_Temp,Wind Speed
Nome,75,US,1561747535,58,30.04,-94.42,91.4,0.51
George,31,MW,1561747690,68,-15.35,34.83,58.37,0.51
Kapaa,90,US,1561747560,88,22.08,-159.32,78.8,0.65
Lusambo,50,CD,1561747672,55,-4.97,23.44,76.01,0.72
Angoram,95,PG,1561747570,97,-4.06,144.07,73.85,0.83
Ilebo,53,CD,1561747677,56,-4.33,20.59,77.99,0.94
Santiago,99,PH,1561747651,92,16.69,121.54,73.13,1.01
Yantai,100,CN,1561747657,38,37.53,121.39,71.01,1.01
Lwowek Slaski,5,PL,1561747658,65,51.11,15.59,72,1.01
Simao,100,CN,1561747638,95,22.76,100.79,68.27,1.03
Huilong,8,CN,1561747637,89,31.15,106.5,66.47,1.07
Ngaoundere,83,CM,1561747658,94,7.32,13.58,67.91,1.19
Kidal,80,ML,1561747551,23,18.44,1.41,94.19,1.23
Meiganga,100,CM,1561747645,94,6.52,14.29,67.01,1.25
Vaini,100,IN,1561747573,88,15.34,74.49,76.01,1.34
Inirida,20,CO,1561747667,59,3.87,-67.92,89.87,1.41
Qaanaaq,29,GL,1561747576,46,77.48,-69.36,48.11,1.48
Mae Sai,20,MM,1561747639,83,20.44,99.89,80.6,1.5
Khandyga,73,RU,1561747686,43,62.65,135.58,56.21,1.54
Ulaangom,0,MN,1561747651,43,49.98,92.07,61.43,1.57
Pasighat,93,IN,1561747640,97,28.06,95.33,69.71,1.7
Lamu,66,CN,1561747652,63,35.77,102.37,51.35,1.74
Labuhan,10,ID,1561747550,92,-2.54,115.51,69.89,1.79
Beyla,100,GN,1561747643,92,8.69,-8.65,74.75,1.83
Vanavara,44,RU,1561747606,61,60.35,102.28,63.23,1.83
Shangrao,100,CN,1561747664,90,28.45,117.97,79.25,1.95
Hemsedal,71,NO,1561747641,58,60.86,8.55,62.01,1.99
Tuatapere,100,NZ,1561747647,83,-46.13,167.69,44.01,1.99
Port Alfred,51,ZA,1561747550,87,-33.59,26.89,57.99,1.99
Mataura,89,NZ,1561747562,83,-46.19,168.86,44.01,1.99
Indian Head,88,CA,1561747661,49,50.53,-103.67,82,1.99
Acandi,100,CO,1561747654,71,8.51,-77.28,84.11,2.01
Paka,100,CF,1561747683,94,4.15,15.03,70.79,2.01
Lata,44,IN,1561747603,73,30.78,78.62,42.89,2.04
Nkhata Bay,0,MW,1561747643,77,-11.61,34.3,53.15,2.08
Bondoukou,67,CI,1561747670,82,8.04,-2.8,77.81,2.15
Ostrovnoy,34,RU,1561747556,65,68.05,39.51,44.15,2.19
Pithoragarh,38,IN,1561747663,43,29.59,80.22,73.13,2.19
Apac,51,UG,1561747691,93,1.98,32.53,66.47,2.19
Krasnyy Chikoy,91,RU,1561747534,94,50.36,108.75,49.19,2.24
Honiara,40,SB,1561747536,94,-9.43,159.96,73.4,2.24
Hazorasp,0,UZ,1561747645,49,41.32,61.08,73.4,2.24
Qingdao,90,CN,1561747661,94,36.09,120.35,71.6,2.24
Port Macquarie,28,AU,1561747662,93,-31.43,152.91,50,2.24
Maldonado,90,UY,1561747581,100,-34.91,-54.96,57.2,2.24
Heihe,20,RU,1561747673,100,50.24,127.51,51.8,2.24
Xiongzhou,75,CN,1561747675,83,32.34,118.83,84.2,2.24
Lebu,40,ET,1561747602,82,8.96,38.73,60.8,2.24
Bilibino,99,RU,1561747559,69,68.06,166.44,48.47,2.33
Ust-Ishim,6,RU,1561747673,82,57.69,71.17,47.03,2.37
Kiri Buru,88,IN,1561747666,83,22.08,85.35,79.61,2.42
Sibu,75,MY,1561747677,94,2.29,111.83,78.8,2.44
Mae Hong Son,90,MM,1561747652,99,19.3,97.96,71.33,2.46
Katete,100,UG,1561747673,95,-0.78,29.75,65.03,2.46
Kavieng,52,PG,1561747569,69,-2.57,150.8,83.39,2.48
Jumla,5,NP,1561747535,89,29.28,82.18,52.61,2.53
Imeni Poliny Osipenko,0,RU,1561747648,77,52.42,136.49,51.17,2.53
Edd,11,ER,1561747657,58,13.93,41.69,87.89,2.55
Sola,79,TZ,1561747693,39,-3.17,33.8,77.09,2.57
East London,70,ZA,1561747576,71,-33.02,27.91,54.23,2.59
Uvat,93,RU,1561747665,61,59.14,68.9,54.05,2.73
Leningradskiy,100,RU,1561747605,97,69.38,178.42,35.87,2.77
Hluti,0,SZ,1561747685,44,-27.22,31.62,62.33,2.86
Kabale,70,UG,1561747687,97,-1.26,29.99,52.07,2.91
Fairbanks,90,US,1561747505,60,64.84,-147.72,72,2.91
Aldan,37,RU,1561747649,84,58.61,125.39,53.33,2.95
Vryheid,0,ZA,1561747669,42,-27.77,30.79,54.05,2.95
Batemans Bay,0,AU,1561747536,93,-35.71,150.18,46,3
Husavik,30,CA,1561747540,24,50.56,-96.99,82.99,3
Bonavista,54,CA,1561747538,80,48.65,-53.11,51.01,3
Kikwit,54,CD,1561747657,42,-5.04,18.82,81.41,3.04
Beinamar,80,TD,1561747651,89,8.67,15.38,75.29,3.06
Chistogorskiy,2,RU,1561747661,86,53.98,87.38,63.23,3.09
Kurumkan,9,RU,1561747646,78,54.33,110.32,48.29,3.13
Shingu,94,JP,1561747534,99,33.72,135.99,68.45,3.15
Mocuba,17,MZ,1561747659,89,-16.84,36.99,63.05,3.15
Uromi,94,NG,1561747665,96,6.71,6.33,74.75,3.2
Butaritari,22,KI,1561747575,64,3.07,172.79,84.11,3.31
Coronon,75,PH,1561747636,94,6.88,125.45,77,3.36
Codrington,75,AU,1561747543,100,-28.95,153.24,55.4,3.36
Klaksvik,90,FO,1561747551,93,62.23,-6.59,50,3.36
Kawalu,90,ID,1561747649,94,-7.38,108.21,65.57,3.36
Tokoname,75,JP,1561747655,88,34.9,136.84,77,3.36
Abu Dhabi,0,AE,1561747394,67,24.47,54.37,96.8,3.36
Katsuura,75,JP,1561747564,94,33.93,134.5,75.2,3.36
Pravda,40,BG,1561747659,64,43.16,25.69,75.2,3.36
Huanren,83,CN,1561747662,89,41.26,125.37,59.09,3.36
Avarua,69,CK,1561747571,72,-21.21,-159.78,68,3.36
Valle Hermoso,75,MX,1561747681,59,25.67,-97.82,93,3.36
Fukue,75,JP,1561747682,88,35.03,136.69,77,3.36
Babylon,1,US,1561747401,33,40.7,-73.33,91,3.36
Bethel,20,US,1561747604,72,60.79,-161.76,62.6,3.36
Poso,75,ID,1561747634,97,-1.4,120.75,60.35,3.38
Provideniya,100,RU,1561747597,98,64.42,-173.23,45.95,3.38
Channel-Port aux Basques,30,CA,1561747677,85,47.57,-59.14,51.53,3.4
Camopi,34,GF,1561747596,94,3.17,-52.33,79.07,3.42
Mabaruma,68,GY,1561747674,78,8.2,-59.78,84.65,3.44
Gornopravdinsk,100,RU,1561747649,61,60.06,69.92,53.15,3.47
Khoy,100,IR,1561747658,65,38.55,44.95,61.43,3.51
Xining,100,CN,1561747684,78,36.62,101.77,48.47,3.53
Verkhnevilyuysk,66,RU,1561747645,90,63.45,120.31,60.71,3.56
Weihe,56,CN,1561747679,59,32.99,105.33,58.19,3.58
Baykit,32,RU,1561747644,54,61.68,96.39,63.77,3.67
Synya,70,RU,1561747671,52,65.37,58.04,57.65,3.76
Houma,0,CN,1561747691,83,35.63,111.36,62.33,3.76
Zhaotong,100,CN,1561747691,94,27.34,103.71,54.41,3.76
San Quintin,100,PH,1561747359,93,17.54,120.52,74.93,3.78
Acajutla,0,SV,1561747689,58,13.59,-89.83,86.27,3.8
Coihaique,20,CL,1561747594,59,-45.58,-72.07,35.6,3.83
Lokosovo,80,RU,1561747661,88,61.13,74.84,46.31,3.85
Santa Fe,74,AR,1561747621,81,-31.62,-60.7,64.99,4
Turiacu,40,BR,1561747659,49,-5.01,-63,90.95,4.07
Inhambane,0,MZ,1561747678,94,-23.87,35.38,63.59,4.07
San Policarpo,100,PH,1561747688,84,12.18,125.51,80.33,4.09
Suntar,82,RU,1561747675,91,62.16,117.65,61.79,4.16
Saldanha,0,PT,1561747565,38,41.42,-6.55,87.53,4.18
Kununurra,31,AU,1561747572,81,-15.77,128.74,53.6,4.21
Taunggyi,99,MM,1561747648,93,20.78,97.03,68.81,4.29
Namatanai,89,PG,1561747594,80,-3.66,152.44,78.35,4.32
Abhar,35,IR,1561747692,43,36.14,49.22,71.15,4.36
Kumluca,66,TR,1561747562,70,36.37,30.29,67.37,4.41
Lagunas,76,PE,1561747635,91,-5.23,-75.68,79.25,4.45
Oktyabrskoye,75,RU,1561747642,93,56.73,85.44,61,4.47
Aleksandrovskoye,75,RU,1561747644,93,56.74,85.39,61,4.47
Aykhal,0,RU,1561747563,64,65.95,111.51,68,4.47
Yelizovo,30,RU,1561747675,100,53.19,158.38,41,4.47
Udachnyy,0,RU,1561747690,64,66.42,112.4,68,4.47
Orel-Izumrud,40,RU,1561747693,78,43.46,39.92,75.2,4.47
Gillette,90,US,1561747638,82,44.29,-105.5,75.99,4.59
Kontagora,69,NG,1561747667,66,10.4,5.47,81.41,4.59
Anito,93,PH,1561747591,85,12.45,125.29,78.89,4.61
Burnie,95,AU,1561747653,96,-41.05,145.91,55,4.68
Maceio,40,BR,1561747536,69,-9.67,-35.74,80.6,4.7
Orange,1,US,1561747565,47,33.79,-117.85,82.99,4.7
Agpangi,75,PH,1561747644,78,10.58,123.42,80.6,4.7
Skibbereen,75,IE,1561747644,93,51.55,-9.27,60.8,4.7
Buraydah,0,SA,1561747647,19,26.33,43.97,98.6,4.7
Inuvik,20,CA,1561747649,53,68.36,-133.71,51.8,4.7
Adana,40,TR,1561747487,83,37,35.33,81,4.7
Sorland,75,NO,1561747553,93,67.67,12.69,48.2,4.7
Buin,90,CL,1561747505,66,-33.73,-70.74,50,4.7
Terrace Bay,20,CA,1561747669,63,48.78,-87.1,66.2,4.7
Shasta Lake,1,US,1561747669,42,40.68,-122.36,82.99,4.7
Aklavik,40,CA,1561747579,62,68.22,-135.01,51.8,4.7
Mackay,75,CA,1561747579,93,53.65,-115.58,57.2,4.7
Mulchen,75,CL,1561747673,93,-37.72,-72.23,48.2,4.7
Faya,0,SA,1561747585,50,18.39,42.45,78.8,4.7
Umm Bab,1,QA,1561747675,34,25.21,50.81,96.8,4.7
Fort Nelson,40,CA,1561747588,59,58.81,-122.69,64.4,4.7
Wanning,0,AT,1561747590,36,48.64,13.53,81,4.7
Ostra,15,AT,1561747685,44,48.44,15.48,77,4.7
Alice Springs,0,AU,1561747685,42,-23.7,133.88,46.4,4.7
Birjand,0,IR,1561747686,15,32.86,59.22,80.6,4.7
Xinzhi,75,TW,1561747687,94,22.54,120.62,82.4,4.7
West Plains,40,US,1561747690,78,36.73,-91.85,82,4.7
Anchorage,75,US,1561747509,72,61.22,-149.89,72,4.7
Jacareacanga,0,BR,1561747591,37,-6.22,-57.76,92.75,4.72
Shache,100,CN,1561747574,31,38.42,77.24,77.81,4.74
Zhigansk,74,RU,1561747668,58,66.77,123.37,60.89,4.76
Turinsk,6,RU,1561747656,90,58.04,63.7,51.71,4.88
Ushuaia,40,AR,1561747457,82,-54.81,-68.31,32,4.88
Liwale,0,TZ,1561747636,61,-9.8,37.92,61.07,4.97
Lorengau,75,PG,1561747542,81,-2.02,147.27,79.25,4.99
Ngunguru,15,NZ,1561747635,94,-35.62,174.5,46,5.01
Gimli,32,CA,1561747655,23,50.63,-96.99,82.99,5.01
Upata,70,VE,1561747690,73,8.02,-62.41,86,5.01
Galle,100,GN,1561747672,85,10.08,-12.83,77.09,5.03
Verkhoyansk,100,RU,1561747638,70,67.55,133.39,60.89,5.19
Dingle,92,PH,1561747579,86,11,122.67,76.55,5.35
Dunedin,100,NZ,1561747649,58,-45.87,170.5,46.85,5.46
Chuy,90,UY,1561747537,94,-33.69,-53.46,62.15,5.48
Rocha,97,UY,1561747406,97,-34.48,-54.34,57.65,5.5
Airai,0,TL,1561747545,76,-8.93,125.41,63.77,5.5
Kaitangata,100,NZ,1561747547,76,-46.28,169.85,42.35,5.53
Zeya,39,RU,1561747691,58,53.74,127.27,54.95,5.53
Hawera,0,NZ,1561747664,89,-39.59,174.28,43.79,5.57
Nazilli,11,TR,1561747667,38,37.91,28.32,75.83,5.59
Dedza,0,MW,1561747660,71,-14.38,34.33,54.41,5.61
Cidreira,100,BR,1561747583,71,-30.17,-50.22,71.87,5.61
Sergeyevka,51,KZ,1561747689,79,53.88,67.42,55.67,5.68
Kruisfontein,76,ZA,1561747539,87,-34,24.73,52.25,5.75
Victoria,75,BN,1561747286,88,5.28,115.24,80.6,5.77
Macheng,100,CN,1561747674,97,31.18,115.03,70.79,5.79
Thompson,40,CA,1561747535,40,55.74,-97.86,69.8,5.82
Noumea,20,NC,1561747638,82,-22.28,166.46,64.4,5.82
Skagen,6,SE,1561747641,49,58.6,13.44,71.6,5.82
Weymouth,1,US,1561747644,65,42.22,-70.94,91,5.82
Boyuibe,0,BO,1561747645,51,-20.43,-63.28,84.2,5.82
Morganton,75,US,1561747648,40,35.75,-81.69,91.99,5.82
Halifax,75,CA,1561747628,72,44.65,-63.58,66,5.82
Poum,20,MK,1561747651,53,41.28,20.71,73.4,5.82
Sioux Lookout,40,CA,1561747654,34,50.1,-91.92,80.6,5.82
Lazaro Cardenas,40,MX,1561747656,35,28.39,-105.62,88,5.82
Moindou,20,NC,1561747661,77,-21.69,165.68,66.2,5.82
Lewisporte,75,CA,1561747671,43,49.25,-55.06,73.4,5.82
Rome,0,IT,1561747678,62,41.89,12.48,91.4,5.82
Kijini,20,TZ,1561747678,74,-5.85,39.32,78.8,5.82
Launceston,75,AU,1561747680,93,-41.43,147.14,53.01,5.82
Havre-Saint-Pierre,90,CA,1561747442,93,50.23,-63.6,53.6,5.82
Palm Beach,40,AU,1561747685,93,-33.6,151.32,53.01,5.82
Alvorada,0,BR,1561747686,88,-30,-51.08,79,5.82
Duluth,1,US,1561747654,56,46.77,-92.13,82,5.88
Arlit,42,NE,1561747682,10,18.74,7.39,105.53,5.88
Tura,88,RU,1561747556,58,64.27,100.22,66.65,5.95
Verkhnyaya Inta,90,RU,1561747677,52,65.99,60.32,60.53,5.95
Naryan-Mar,92,RU,1561747557,57,67.67,53.09,58.91,5.97
Horn Lake,40,US,1561747645,61,34.96,-90.03,87.01,5.99
Curuca,4,BR,1561747652,42,-2.52,-61.06,92.75,5.99
Mount Isa,0,AU,1561747353,76,-20.73,139.49,51.8,5.99
Saint-Georges,51,CA,1561747590,56,46.12,-70.67,81,5.99
Chaihe,100,CN,1561747680,98,44.77,129.68,59.63,5.99
Gondanglegi,14,ID,1561747646,89,-7.75,112.01,66.11,6.04
Mgandu,11,TZ,1561747641,52,-5.96,34.11,65.75,6.13
Cherskiy,16,RU,1561747535,77,68.75,161.3,49.01,6.15
Khasan,100,RU,1561747636,99,42.43,130.64,58.01,6.17
Beringovskiy,59,RU,1561747476,78,63.05,179.32,46.85,6.2
San Patricio,92,PY,1561747578,71,-26.98,-56.83,77.27,6.2
Rawson,0,AR,1561747659,33,-43.3,-65.11,39.11,6.26
Trelew,0,AR,1561747419,33,-43.25,-65.31,39.11,6.26
Aasiaat,82,GL,1561747690,87,68.71,-52.87,35.69,6.29
Marzuq,37,YE,1561747653,40,14.4,46.47,83.75,6.38
Ibra,28,OM,1561747667,46,22.69,58.55,86.81,6.44
Savinka,80,RU,1561747669,68,50.08,47.1,70.61,6.46
Kirovskiy,99,RU,1561747634,97,45.09,133.51,54.23,6.51
Muravlenko,100,RU,1561747537,72,63.79,74.5,50.63,6.51
Aksarka,81,RU,1561747670,74,66.56,67.8,54.59,6.51
Vao,23,EE,1561747569,58,59.1,26.19,60.35,6.53
Yar-Sale,79,RU,1561747646,83,66.83,70.83,51.89,6.69
Makushino,92,RU,1561747678,76,55.21,67.25,55.49,6.71
Svetlogorsk,75,RU,1561747679,72,53.14,59.15,60.8,6.71
Nishihara,90,JP,1561747689,94,35.74,139.53,72,6.78
Muriti,12,TZ,1561747685,65,-1.99,32.93,75.83,6.82
Kahului,40,US,1561747342,69,20.89,-156.47,80.6,6.93
Kensington,90,CA,1561747635,93,46.44,-63.64,64.99,6.93
Ostersund,75,SE,1561747641,76,63.18,14.64,54,6.93
West Wendover,1,US,1561747373,20,40.74,-114.07,77,6.93
Tuktoyaktuk,75,CA,1561747545,80,69.44,-133.03,39.2,6.93
Chippewa Falls,75,US,1561747529,65,44.94,-91.39,81,6.93
Landerneau,90,FR,1561747648,88,48.45,-4.26,70,6.93
Whitley Bay,0,GB,1561747652,77,55.04,-1.44,68,6.93
Onda,0,ES,1561747656,27,39.96,-0.26,93.99,6.93
Fortuna,0,ES,1561747561,45,38.18,-1.13,88,6.93
Marrakesh,40,MA,1561747660,33,31.63,-7.99,91.4,6.93
Souillac,0,FR,1561747568,65,45.6,-0.6,82.99,6.93
Uniontown,40,US,1561747664,45,39.9,-79.72,89.01,6.93
Oussouye,75,SN,1561747669,74,12.49,-16.54,87.8,6.93
Tasiilaq,75,GL,1561747578,66,65.61,-37.64,48.2,6.93
Geraldton,75,CA,1561747333,38,49.72,-86.95,77,6.93
Harper,75,US,1561747592,54,30.3,-99.24,89.01,6.93
Riyadh,0,SA,1561747684,7,24.63,46.72,102.2,6.93
Manavgat,40,TR,1561747684,65,36.79,31.44,81,6.93
Hamilton,75,CA,1561747686,48,43.26,-79.87,87.8,6.93
Burns Lake,100,CA,1561747691,73,54.23,-125.76,57.47,6.93
Birmitrapur,69,IN,1561747688,75,22.4,84.77,81.05,6.96
Hermanus,92,ZA,1561747563,76,-34.42,19.24,57,7
Azuaga,0,ES,1561747665,22,38.26,-5.68,93,7
Barabinsk,7,RU,1561747642,88,55.35,78.35,50.99,7.05
Bilma,94,NE,1561747675,13,18.69,12.92,100.49,7.09
Miles City,90,US,1561747660,60,46.41,-105.84,75.2,7.16
Egvekinot,100,RU,1561747592,97,66.32,-179.17,45.95,7.2
Slupsk,0,PL,1561747406,72,54.46,17.03,63.05,7.34
Yongan,8,CN,1561747643,46,39.7,113.69,64.67,7.43
Seoni Malwa,58,IN,1561747659,70,22.45,77.47,85.55,7.49
San Rafael,0,AR,1561747650,35,-34.61,-68.33,53.15,7.52
Champasak,91,LA,1561747639,91,14.89,105.88,76.01,7.61
Noyabrsk,96,RU,1561747692,84,63.2,75.45,46.85,7.61
Kharitonovo,100,RU,1561747672,53,61.4,47.5,62.69,7.78
Varzea da Palma,0,BR,1561747657,21,-17.6,-44.73,83.21,7.85
Adamovka,60,RU,1561747653,68,51.52,59.94,59.63,8.03
Vallenar,20,CL,1561747692,64,-28.58,-70.76,55.49,8.03
Avera,1,US,1561747536,43,33.19,-82.53,91.99,8.05
Cape Town,20,ZA,1561747268,93,-33.93,18.42,57,8.05
Tiffin,1,US,1561747579,55,41.11,-83.18,93.99,8.05
Swellendam,86,ZA,1561747643,62,-34.02,20.44,53.6,8.05
Nelson Bay,0,AU,1561747548,82,-32.72,152.14,55.4,8.05
Meadow Lake,90,CA,1561747646,100,54.13,-108.44,59,8.05
Independence,1,US,1561747647,52,39.09,-94.42,93.99,8.05
Abidjan,20,CI,1561747650,83,5.32,-4.02,80.6,8.05
Gizo,20,IL,1561747660,69,31.8,34.94,80.6,8.05
Dwarka,40,IN,1561747662,36,28.58,77.04,93.2,8.05
Great Falls,20,US,1561747665,72,47.5,-111.29,66.99,8.05
Luderitz,0,NA,1561747574,93,-26.65,15.16,55.4,8.05
Anavra,40,GR,1561747667,33,39.68,22.7,91.4,8.05
Bredasdorp,88,ZA,1561747580,62,-34.53,20.04,57,8.05
Saint George,40,GR,1561747580,33,39.45,22.34,91.4,8.05
Tecoanapa,5,MX,1561747674,66,16.99,-99.26,89.6,8.05
Port Elizabeth,1,US,1561747587,43,39.31,-74.98,95,8.05
Saint-Pierre,0,FR,1561747592,42,48.95,4.24,84.99,8.05
Hovd,75,NO,1561747686,87,63.83,10.7,57,8.05
Sao Gabriel da Cachoeira,40,BR,1561747688,79,-0.13,-67.09,84.2,8.05
Carutapera,5,BR,1561747594,83,-1.2,-46.02,81.41,8.12
Tiksi,74,RU,1561747549,86,71.64,128.87,40.37,8.19
Belmonte,0,PT,1561747552,42,40.36,-7.35,82.99,8.21
Paranapanema,14,BR,1561747645,57,-23.39,-48.72,78.89,8.5
Beyneu,4,KZ,1561747677,16,45.32,55.19,85.55,8.59
Goderich,90,CA,1561747595,83,43.74,-81.71,79,8.66
Port Shepstone,0,ZA,1561747575,37,-30.74,30.45,66.11,8.68
Hithadhoo,99,MV,1561747605,71,-0.6,73.08,84.11,8.7
Te Anau,86,NZ,1561747637,73,-45.41,167.72,47.93,8.75
Zhanaozen,0,KZ,1561747689,19,43.35,52.85,81.23,8.77
Casa Nova,0,BR,1561747652,27,-16.03,-44.16,82.67,8.79
Plyussa,0,RU,1561747640,56,58.42,29.37,57.47,8.81
Domnesti,0,RO,1561747663,85,45.2,24.83,52.43,8.81
Sangueya,100,GN,1561747642,80,10.7,-14.37,81.59,8.9
Leninskoye,90,RU,1561747647,82,54.82,82.85,59,8.95
Deputatskiy,50,RU,1561747575,69,69.3,139.9,50.45,9.04
Thinadhoo,88,MV,1561747554,71,0.53,72.93,83.93,9.13
Pevek,26,RU,1561747560,77,69.7,170.27,39.83,9.13
Cabo San Lucas,5,MX,1561747313,28,22.89,-109.91,100.99,9.17
Tahoua,0,NE,1561747636,46,14.89,5.26,91.4,9.17
Nantucket,1,US,1561747538,73,41.28,-70.1,84.99,9.17
Clermont,0,FR,1561747637,48,49.38,2.41,88,9.17
Half Moon Bay,90,US,1561747638,77,37.46,-122.43,72,9.17
Qaqortoq,75,GL,1561747639,55,60.72,-46.03,60.8,9.17
Bowen,75,AU,1561747346,82,-20.01,148.25,66,9.17
La Ronge,90,CA,1561747544,68,55.1,-105.3,66.2,9.17
Pozoblanco,0,ES,1561747642,26,38.38,-4.85,96.8,9.17
Ballina,90,IE,1561747546,77,54.11,-9.15,68,9.17
Broome,0,GB,1561747555,82,52.47,1.45,68,9.17
Hilo,40,US,1561747558,78,19.71,-155.08,80.01,9.17
Estelle,0,FR,1561747655,18,43.97,3.47,102.2,9.17
Dakar,75,SN,1561747573,74,14.69,-17.45,80.6,9.17
Narsaq,75,GL,1561747297,55,60.91,-46.05,60.8,9.17
Westport,1,US,1561747383,39,41.14,-73.36,91,9.17
Torbay,90,CA,1561747582,93,47.66,-52.73,57.99,9.17
Bongaree,75,AU,1561747677,87,-27.08,153.16,60.01,9.17
Ancud,0,CL,1561747589,60,-41.87,-73.83,41,9.17
Montoro,0,ES,1561747682,26,38.02,-4.38,96.8,9.17
Port Hawkesbury,75,CA,1561747682,67,45.62,-61.36,64.99,9.17
Castro,0,CL,1561747593,60,-42.48,-73.76,41,9.17
Pisco,75,PE,1561747595,30,-13.71,-76.2,71.6,9.17
Paceco,0,IT,1561747684,88,37.98,12.56,84,9.17
Salalah,75,OM,1561747601,88,17.01,54.1,82.4,9.17
Yellowknife,40,CA,1561747602,51,62.45,-114.38,60.8,9.17
Kerrobert,75,CA,1561747690,68,51.92,-109.14,71.01,9.17
Muros,0,ES,1561747607,68,42.77,-9.06,79,9.17
Coquimbo,75,CL,1561747607,71,-29.95,-71.34,55.4,9.17
Changji,100,CN,1561747676,96,32.07,116.17,74.57,9.19
Bharatpur,15,IN,1561747665,21,27.22,77.5,100.85,9.28
Khanewal,20,PK,1561747675,67,30.3,71.93,93.2,9.31
Khash,0,IR,1561747681,14,28.22,61.21,77.45,9.35
Chokurdakh,0,RU,1561747582,52,70.62,147.9,44.15,9.42
Presidencia Roque Saenz Pena,96,AR,1561747640,55,-26.79,-60.44,82.13,9.55
Rio Grande,90,BR,1561747663,100,-32.03,-52.1,60.8,9.55
Eskil,94,TR,1561747636,30,38.4,33.41,81.05,9.57
Tocopilla,12,CL,1561747567,82,-22.09,-70.2,58.01,9.64
Vanimo,100,PG,1561747688,92,-2.67,141.3,77.45,9.73
Chukhloma,100,RU,1561747681,98,58.76,42.68,51.89,9.82
Kudahuvadhoo,53,MV,1561747692,72,2.67,72.89,83.93,9.89
Vokhtoga,100,RU,1561747641,98,58.81,41.03,51.53,9.95
Valparaiso,40,US,1561747554,48,41.47,-87.06,89.01,9.98
Ponta do Sol,20,BR,1561747360,51,-20.63,-46,74.93,10.07
Sokolka,14,RU,1561747656,92,52.46,43.89,59.45,10.13
Padang,21,ID,1561747593,81,-0.92,100.36,83.57,10.18
Barrow,100,AR,1561747589,68,-38.31,-60.23,54.23,10.2
Albany,1,US,1561747456,37,42.65,-73.75,90,10.29
Wells,24,GB,1561747639,47,51.21,-2.64,80.6,10.29
Nuuk,75,GL,1561747543,70,64.17,-51.74,46,10.29
Floro,75,NO,1561747648,87,61.6,5.03,62.6,10.29
Kuldiga,0,LV,1561747650,76,56.97,21.96,57.2,10.29
Cap-aux-Meules,90,CA,1561747553,82,47.38,-61.86,55.4,10.29
Mareeba,90,AU,1561747555,83,-16.99,145.42,71.6,10.29
Marietta,40,US,1561747382,48,33.95,-84.55,91.99,10.29
Melfi,40,IT,1561747565,24,41,15.66,89.6,10.29
Slave Lake,90,CA,1561747665,93,55.28,-114.77,57.2,10.29
Vieste,40,IT,1561747670,24,41.88,16.18,89.6,10.29
Ixtapa,20,MX,1561747369,74,20.71,-105.21,89.01,10.29
San Angelo,1,US,1561747679,46,31.46,-100.44,91,10.29
Copiapo,75,CL,1561747455,58,-27.37,-70.33,59,10.29
Constitucion,40,MX,1561747600,22,23.99,-104.67,79,10.29
Moree,29,AU,1561747687,76,-29.46,149.84,48.2,10.29
Muisne,75,EC,1561747689,83,0.61,-80.02,82.4,10.29
Hasaki,75,JP,1561747606,94,35.73,140.83,68,10.29
Dedougou,64,BF,1561747641,26,12.47,-3.47,98.33,10.4
Viedma,78,AR,1561747651,52,-40.81,-62.99,48.29,10.42
Upernavik,0,GL,1561747548,85,72.79,-56.15,36.23,10.56
Guerrero Negro,79,MX,1561747568,83,27.97,-114.04,65.75,10.56
Ambilobe,52,MG,1561747551,85,-13.19,49.05,74.93,10.58
Dong Hoi,0,VN,1561747668,61,17.48,106.6,83.93,10.6
Kautokeino,99,NO,1561747680,47,69.01,23.04,47.75,10.76
Arak,0,IR,1561747624,13,34.1,49.69,76.55,10.89
Zuwarah,0,LY,1561747666,66,32.93,12.08,79.79,10.92
Kalikapur,94,BD,1561747658,75,23.79,89.46,83.75,11.07
Anadyr,90,RU,1561747569,81,64.73,177.51,48.2,11.18
Zhuhai,0,CN,1561747679,42,40.71,112.04,66.2,11.18
Carsamba,40,TR,1561747653,73,41.2,36.72,73.4,11.3
Severo-Kurilsk,0,RU,1561747535,94,50.68,156.12,41.45,11.36
Bluff,0,AU,1561747534,81,-23.58,149.07,54.95,11.41
Laguna,40,BZ,1561747536,53,16.17,-88.94,75.2,11.41
Puerto Montt,20,CL,1561747637,59,-41.47,-72.94,42.8,11.41
Lompoc,1,US,1561747540,68,34.64,-120.46,75.99,11.41
Itoman,40,JP,1561747549,88,26.12,127.67,82.4,11.41
Rio Gallegos,0,AR,1561747647,52,-51.62,-69.22,41,11.41
La Libertad,0,PE,1561747650,13,-16.38,-71.56,71.6,11.41
Hambantota,40,LK,1561747554,94,6.12,81.12,80.6,11.41
Virginia Beach,75,US,1561747390,55,36.85,-75.98,96.01,11.41
Penzance,75,GB,1561747559,82,50.12,-5.53,64.99,11.41
Ilulissat,40,GL,1561747562,61,69.22,-51.1,46.4,11.41
Abnub,0,EG,1561747662,33,27.27,31.15,91.4,11.41
Hayrabolu,75,TR,1561747671,78,41.21,27.11,73.4,11.41
Camacha,20,PT,1561747583,64,33.08,-16.33,69.8,11.41
Cerkezkoy,75,TR,1561747678,78,41.28,28,77,11.41
Brigham City,1,US,1561747492,14,41.51,-112.02,86,11.41
Port-Gentil,40,GA,1561747393,83,-0.72,8.78,77,11.41
Bognor Regis,0,GB,1561747693,60,50.78,-0.67,75.99,11.41
Kamenka,0,MD,1561747564,61,48.03,28.7,59,11.43
Marystown,100,CA,1561747680,55,47.17,-55.16,59.99,11.43
Farah,0,AF,1561747649,16,32.37,62.11,87.71,11.61
Dikson,52,RU,1561747538,85,73.51,80.55,35.87,11.63
Kotma,100,IN,1561747656,61,23.2,81.98,82.85,11.65
Mahibadhoo,64,MV,1561747663,74,3.78,72.97,83.39,11.65
Tiznit,0,MA,1561747660,87,29.7,-9.73,68.09,11.88
Henties Bay,0,NA,1561747587,89,-22.12,14.28,55.99,11.9
Tuy Hoa,100,VN,1561747668,67,13.08,109.3,80.15,11.92
Beloha,33,MG,1561747573,60,-25.17,45.06,75.11,12.08
Morondava,8,MG,1561747600,78,-20.3,44.28,78.17,12.53
Taoudenni,93,ML,1561747673,4,22.68,-3.98,114.17,12.64
Carnarvon,56,ZA,1561747589,72,-30.97,22.13,48.29,12.64
Ribeira Grande,40,PT,1561747535,60,38.52,-28.7,68,12.75
Constantine,0,DZ,1561747637,37,36.36,6.61,84.2,12.75
Hobart,75,AU,1561747248,71,-42.88,147.33,57.2,12.75
Alcacer do Sal,0,PT,1561747643,53,38.37,-8.51,89.6,12.75
Pocoes,75,BR,1561747663,73,-14.53,-40.37,71.6,12.75
Margate,75,AU,1561747572,71,-43.03,147.26,57.2,12.75
Cayenne,40,GF,1561747575,66,4.94,-52.33,87.8,12.75
Inhapi,75,BR,1561747671,48,-9.22,-37.75,84.2,12.75
Comodoro Rivadavia,0,AR,1561747671,51,-45.87,-67.48,39.2,12.75
New Norfolk,75,AU,1561747584,71,-42.78,147.06,57.2,12.75
Saint-Philippe,1,CA,1561747585,51,45.36,-73.48,87.8,12.75
Rawlins,1,US,1561747680,13,41.79,-107.24,82.4,12.75
Ngerengere,20,TZ,1561747683,88,-6.76,38.13,69.8,12.75
Touros,75,BR,1561747597,66,-5.2,-35.46,84.2,12.75
Corbeanca,20,RO,1561747688,64,44.59,26.04,73,12.75
Esperance,90,AU,1561747608,93,-33.86,121.89,44.6,12.75
Kodiak,1,US,1561747608,55,39.95,-94.76,93.99,12.75
Dzilam Gonzalez,87,MX,1561747674,80,21.28,-88.93,81.59,12.77
Araouane,31,ML,1561747443,12,18.9,-3.53,104.27,12.88
Srednekolymsk,100,RU,1561747548,87,67.46,153.71,43.43,12.93
Pudozh,100,RU,1561747663,75,61.81,36.54,49.91,13
Zyryanka,100,RU,1561747668,87,65.73,150.89,49.37,13.2
Jamestown,39,AU,1561747507,70,-33.21,138.6,55.85,13.33
Onega,100,RU,1561747682,78,63.91,38.09,48.65,13.38
Nikolskoye,0,RU,1561747554,39,59.7,30.79,62.6,13.42
Jagalur,100,IN,1561747683,76,14.53,76.35,74.93,13.65
Busselton,72,AU,1561747587,64,-33.64,115.35,48.99,13.71
Sobolevo,90,RU,1561747687,86,54.43,31.9,52.79,13.71
Georgetown,75,GY,1561747320,88,6.8,-58.16,80.6,13.87
Mannarakkat,20,IN,1561747654,78,10.98,76.47,87.01,13.87
Aswan,0,EG,1561747558,13,24.09,32.9,104,13.87
Alacranes,75,CU,1561747655,83,22.77,-81.57,82.4,13.87
Arraial do Cabo,20,BR,1561747570,74,-22.97,-42.02,80.6,13.87
Cabedelo,75,BR,1561747672,69,-6.97,-34.84,82.4,13.87
Puerto Colombia,0,CO,1561747676,62,10.99,-74.96,90,13.87
Gat,0,SN,1561747598,65,14.69,-16.54,80.6,13.87
Medicine Hat,75,CA,1561747395,46,50.04,-110.68,70,13.87
Bento Goncalves,40,BR,1561747689,77,-29.17,-51.52,73.99,13.87
Dhidhdhoo,95,MV,1561747493,75,6.88,73.1,83.75,13.91
Praia da Vitoria,20,PT,1561747664,64,38.73,-27.07,70,13.96
Catuday,100,PH,1561747692,79,16.29,119.81,83.21,13.96
Imeni Zhelyabova,100,RU,1561747674,94,58.95,36.6,51.53,13.98
Marsh Harbour,100,BS,1561747409,71,26.54,-77.06,85.37,14.09
Belyy Gorodok,100,RU,1561747643,97,56.97,37.51,48.83,14.18
Uvarovka,100,RU,1561747676,95,55.53,35.61,50.09,14.36
Richards Bay,0,ZA,1561747549,73,-28.77,32.06,72.41,14.38
Mangrol,35,IN,1561747663,38,25.33,76.51,95.81,14.54
Khatanga,81,RU,1561747558,73,71.98,102.47,53.51,14.79
Barra Patuca,12,HN,1561747652,78,15.8,-84.28,81.95,14.85
Buchanan,75,LR,1561747590,94,5.88,-10.05,77,14.85
Beni Suef,0,EG,1561747612,24,29.07,31.1,90.77,14.9
Ponta Delgada,20,PT,1561747540,64,37.73,-25.67,68,14.99
Moose Factory,75,CA,1561747639,68,51.26,-80.61,71.6,14.99
Geri,86,CN,1561747653,56,35.67,100.55,54.05,14.99
Bolnisi,75,GE,1561747659,82,41.45,44.54,68,14.99
Vila Franca do Campo,20,PT,1561747584,64,37.72,-25.43,68,14.99
Yulara,0,AU,1561747585,62,-25.24,130.99,55.4,14.99
Sitka,0,US,1561747576,43,37.17,-99.65,91,15.01
Deder,17,ET,1561747681,56,9.31,41.44,77.63,15.12
Namibe,11,AO,1561747587,84,-15.19,12.15,65.93,15.23
Loralai,0,PK,1561747634,20,30.37,68.6,82.67,15.37
Norilsk,90,RU,1561747573,93,69.35,88.2,55.4,15.66
Talnakh,90,RU,1561747693,93,69.49,88.39,55.4,15.66
Ahipara,0,NZ,1561747599,64,-35.17,173.16,56.57,15.7
Sinnamary,23,GF,1561747286,82,5.38,-52.96,81.41,15.77
Pakokku,91,MM,1561747683,68,21.33,95.09,84.83,15.79
Mar del Plata,0,AR,1561747602,35,-46.43,-67.52,36.77,15.93
Bambous Virieux,75,MU,1561747545,78,-20.34,57.76,73.4,16.11
Longyearbyen,75,NO,1561747546,65,78.22,15.63,41,16.11
Zapolyarnyy,90,RU,1561747666,57,69.43,30.82,50,16.11
Refojos de Basto,20,PT,1561747669,88,41.51,-7.99,81,16.11
Grand Gaube,75,MU,1561747578,78,-20.01,57.66,73.4,16.11
Quatre Cocos,75,MU,1561747671,78,-20.21,57.76,73.4,16.11
Cap Malheureux,75,MU,1561747603,78,-19.98,57.61,73.4,16.11
Mahebourg,75,MU,1561747606,78,-20.41,57.7,73.4,16.11
Severnoye,88,RU,1561747666,83,54.09,52.54,63.23,16.28
Sinop,0,TR,1561747564,82,42.03,35.15,73.13,16.46
Sao Filipe,5,CV,1561747607,85,14.9,-24.5,73.49,16.67
Kavaratti,92,IN,1561747444,76,10.57,72.64,83.39,17.13
Russell,1,US,1561747655,30,38.9,-98.86,97,17.22
Benguela,0,AO,1561747656,87,-12.58,13.4,68.99,17.34
Dawlatabad,44,AF,1561747668,25,36.41,64.91,84.47,17.67
Pandan,81,PH,1561747662,78,11.72,122.09,84.29,17.74
Kovur,98,IN,1561747670,50,14.5,79.99,88.43,17.74
Atuona,84,PF,1561747592,81,-9.8,-139.03,80.15,17.76
Bubaque,51,GW,1561747546,84,11.28,-15.83,80.51,17.98
Nouadhibou,0,MR,1561747639,53,20.93,-17.03,77,18.34
Puerto Ayora,75,EC,1561747584,69,-0.74,-90.35,78.8,18.34
Manaure,75,CO,1561747586,49,11.78,-72.45,93.2,18.34
Alofi,90,NU,1561747598,88,-19.06,-169.92,71.6,18.34
Pontianak,93,ID,1561747565,81,-0.02,109.34,84.11,18.43
Karratha,0,AU,1561747687,37,-20.74,116.85,65.75,18.57
Awjilah,0,LY,1561747587,33,29.14,21.3,88.25,18.68
Tual,99,ID,1561747684,84,-5.67,132.75,78.71,18.86
Dargaville,14,NZ,1561747676,68,-35.94,173.86,56.39,19.04
Hammerfest,75,NO,1561747390,87,70.66,23.68,46.4,19.46
Berlevag,75,NO,1561747653,87,70.86,29.09,46.4,19.46
Roald,40,NO,1561747664,87,62.58,6.12,62.6,19.46
Iqaluit,40,CA,1561747582,37,63.75,-68.52,69.8,19.46
Mehamn,94,NO,1561747679,75,71.03,27.85,44.6,19.46
Honningsvag,75,NO,1561747673,81,70.98,25.97,44.6,19.46
Faanui,53,PF,1561747269,78,-16.48,-151.75,78.35,19.77
Jardim do Serido,0,BR,1561747603,32,-6.58,-36.77,90.77,19.91
Mundra,100,IN,1561747646,72,22.84,69.73,84.11,20.31
Rikitea,21,PF,1561747584,83,-23.12,-134.97,75.29,20.31
Sur,0,OM,1561747693,50,22.57,59.53,91.13,20.38
Martaban,100,MM,1561747676,89,16.53,97.61,79.43,20.45
Natal,40,BR,1561747460,61,-5.81,-35.21,84.2,20.8
Mizdah,23,LY,1561747680,40,31.45,12.98,82.67,20.8
Cockburn Town,100,TC,1561747559,77,21.46,-71.14,82.67,20.83
Tadine,44,NC,1561747580,85,-21.55,167.88,69.89,21.16
Koumac,2,NC,1561747650,80,-20.56,164.28,71.51,21.25
Garissa,35,KE,1561747640,57,-0.46,39.64,77.45,21.63
The Valley,20,AI,1561747440,66,18.22,-63.06,88,21.92
Roxana,75,CR,1561747686,60,10.27,-83.75,78.8,21.92
Galesong,75,ID,1561747661,94,-5.32,119.37,69.8,22.01
Clyde River,5,CA,1561747540,65,70.47,-68.59,44.6,23.04
Punta Arenas,40,CL,1561747561,78,-53.16,-70.91,37.4,23.04
Marechal Candido Rondon,0,BR,1561747389,54,-24.56,-54.06,84.2,23.04
Bathsheba,20,BB,1561747617,70,13.22,-59.52,86,24.16
Hobyo,79,SO,1561747544,70,5.35,48.53,77.99,24.7
Seddon,90,AU,1561747691,72,-37.81,144.89,62.01,25.28
Eyl,86,SO,1561747586,62,7.98,49.82,79.07,26.22
Morant Bay,20,JM,1561747645,55,17.88,-76.41,89.6,26.4
Portmore,20,JM,1561747408,55,17.97,-76.87,89.6,26.4
Santa Cecilia,75,CR,1561747682,50,9.85,-84.31,78.8,26.4
La Asuncion,21,AR,1561747377,8,-26.05,-65.39,78.53,28.34
Bandarbeyla,1,SO,1561747561,64,9.49,50.81,79.07,28.92
Port Blair,100,IN,1561747540,78,11.67,92.75,83.57,28.99
Port Lincoln,100,AU,1561747561,71,-34.72,135.86,57.11,29.48
Karpathos,0,GR,1561747640,78,35.51,27.21,77,31.09
Pervomayskaya,75,RU,1561747662,69,43.4,45.52,75.2,33.55
